[
  {"title":"West New York Middle School","location":{"lat":40.7848554,"lng":-74.0132552}},
  {"title":"Middle College High School at Laguardia","location":{"lat":40.7433449,"lng":-73.933675}},
  {"title":"Robert F Wagner Middle School","location":{"lat":40.7718855,"lng":-73.95790649999999}},
  {"title":"Emerson Middle School","location":{"lat":40.7630468,"lng":-74.0331144}},
  {"title":"Simon Baruch Junior High School","location":{"lat":40.7358197,"lng":-73.9809827}},
  {"title":"Hunter's Point Community Middle School","location":{"lat":40.7428077,"lng":-73.9594694}},
  {"title":"Hunter College Elementary School","location":{"lat":40.78553969999999,"lng":-73.9536897}},
  {"title":"Thomas A. Edison Elementary School","location":{"lat":40.7563069,"lng":-74.0418426}},
  {"title":"Aaron School Elementary and Middle School","location":{"lat":40.75159980000001,"lng":-73.9700264}},
  {"title":"Cornelia F Bradford Elementary","location":{"lat":40.714824,"lng":-74.03819899999999}},
  {"title":"Harry L Bain School","location":{"lat":40.7888366,"lng":-74.0085947}},
  {"title":"St. Joseph of the Palisades Elementary School","location":{"lat":40.791537,"lng":-74.0108437}},
  {"title":"Old Stuyvesant High School","location":{"lat":40.7327933,"lng":-73.98332429999999}},
  {"title":"47 The American Sign Language And English Secondary School","location":{"lat":40.7382609,"lng":-73.9812096}},
  {"title":"Stuyvesant High School","location":{"lat":40.7179842,"lng":-74.0138707}},
  {"title":"Hunter College High School","location":{"lat":40.785624,"lng":-73.95410679999999}},
  {"title":"Eleanor Roosevelt High School","location":{"lat":40.77028199999999,"lng":-73.953267}},
  {"title":"Bard High School Early College","location":{"lat":40.7182547,"lng":-73.9760185}},
  {"title":"Hunter College Elementary School","location":{"lat":40.78553969999999,"lng":-73.9536897}},
  {"title":"Hunter College High School","location":{"lat":40.785624,"lng":-73.95410679999999}},
  {"title":"Bard High School Early College","location":{"lat":40.7182547,"lng":-73.9760185}},
  {"title":"Baruch College Campus High School","location":{"lat":40.7418485,"lng":-73.98590899999999}},
  {"title":"Middle College High School at Laguardia","location":{"lat":40.7433449,"lng":-73.933675}},
  {"title":"Hunter-Bellevue School of Nursing","location":{"lat":40.7381201,"lng":-73.9758804}}
]
